[
  {
    "image": "img/about/1.jpg",
    "name": "Event 1",
    "description": "The first event",
    "date": "2019.01.01",
    "time": "1:00 PM",
    "duration": "1 Hour",
    "location": {
      "streetAddr": "101 First Street",
      "city": "London",
      "zip": "111111",
      "lon": 0,
      "lat": 0
    },
    "capacity": 100
  },
  {
    "image": "img/about/2.jpg",
    "name": "Event 2",
    "description": "The second event",
    "date": "2019.02.02",
    "time": "2:00 PM",
    "duration": "2 Hours",
    "location": {
      "streetAddr": "202 Second Street",
      "city": "London",
      "zip": "222222",
      "lon": 0,
      "lat": 0
    },
    "capacity": 200
  },
  {
    "image": "img/about/3.jpg",
    "name": "Event 3",
    "description": "The third event",
    "date": "2019.03.03",
    "time": "3:00 PM",
    "duration": "3 Hours",
    "location": {
      "streetAddr": "303 Third Street",
      "city": "London",
      "zip": "333333",
      "lon": 0,
      "lat": 0
    },
    "capacity": 300
  },
  {
    "image": "img/about/4.jpg",
    "name": "Event 4",
    "description": "The fourth event",
    "date": "2019.04.04",
    "time": "4:00 PM",
    "duration": "4 Hours",
    "location": {
      "streetAddr": "404 Fourth Street",
      "city": "London",
      "zip": "444444",
      "lon": 0,
      "lat": 0
    },
    "capacity": 400
  }
]
